[DEBUG][2021-05-01 15:09:33,899]{'mavpackettype': 'BAD_DATA', 'data': bytearray(b'\x00'), 'reason': 'Bad prefix'}
[DEBUG][2021-05-01 15:09:33,909]{'mavpackettype': 'BAD_DATA', 'data': bytearray(b'\x00'), 'reason': 'Bad prefix'}
[DEBUG][2021-05-01 15:09:33,920]{'mavpackettype': 'BAD_DATA', 'data': bytearray(b'\x13'), 'reason': 'Bad prefix'}
[DEBUG][2021-05-01 15:09:33,930]{'mavpackettype': 'BAD_DATA', 'data': bytearray(b'\x00'), 'reason': 'Bad prefix'}
[DEBUG][2021-05-01 15:09:33,940]{'mavpackettype': 'BAD_DATA', 'data': bytearray(b'\x00'), 'reason': 'Bad prefix'}
[DEBUG][2021-05-01 15:09:33,951]{'mavpackettype': 'BAD_DATA', 'data': bytearray(b'\x00'), 'reason': 'Bad prefix'}
[DEBUG][2021-05-01 15:09:34,005]{'mavpackettype': 'HEARTBEAT', 'type': 12, 'autopilot': 3, 'base_mode': 81, 'custom_mode': 19, 'system_status': 5, 'mavlink_version': 3}
[DEBUG][2021-05-01 15:09:34,016]{'mavpackettype': 'HEARTBEAT', 'type': 12, 'autopilot': 3, 'base_mode': 81, 'custom_mode': 19, 'system_status': 5, 'mavlink_version': 3}
[DEBUG][2021-05-01 15:09:34,027]{'mavpackettype': 'HEARTBEAT', 'type': 12, 'autopilot': 3, 'base_mode': 81, 'custom_mode': 19, 'system_status': 5, 'mavlink_version': 3}
[DEBUG][2021-05-01 15:09:34,037]{'mavpackettype': 'STATUSTEXT', 'severity': 4, 'text': 'MYGCS: 255, heartbeat lost', 'id': 0, 'chunk_seq': 0}
[DEBUG][2021-05-01 15:09:34,048]{'mavpackettype': 'HEARTBEAT', 'type': 12, 'autopilot': 3, 'base_mode': 81, 'custom_mode': 19, 'system_status': 5, 'mavlink_version': 3}
[DEBUG][2021-05-01 15:09:34,058]{'mavpackettype': 'HEARTBEAT', 'type': 12, 'autopilot': 3, 'base_mode': 81, 'custom_mode': 19, 'system_status': 5, 'mavlink_version': 3}
[DEBUG][2021-05-01 15:09:34,069]{'mavpackettype': 'HEARTBEAT', 'type': 12, 'autopilot': 3, 'base_mode': 81, 'custom_mode': 19, 'system_status': 5, 'mavlink_version': 3}
[DEBUG][2021-05-01 15:09:34,079]{'mavpackettype': 'HEARTBEAT', 'type': 12, 'autopilot': 3, 'base_mode': 81, 'custom_mode': 19, 'system_status': 5, 'mavlink_version': 3}
[DEBUG][2021-05-01 15:09:34,090]{'mavpackettype': 'TIMESYNC', 'tc1': 0, 'ts1': 4064111393001}
[DEBUG][2021-05-01 15:09:34,100]{'mavpackettype': 'HEARTBEAT', 'type': 12, 'autopilot': 3, 'base_mode': 81, 'custom_mode': 19, 'system_status': 5, 'mavlink_version': 3}
[DEBUG][2021-05-01 15:09:34,111]{'mavpackettype': 'HEARTBEAT', 'type': 12, 'autopilot': 3, 'base_mode': 81, 'custom_mode': 19, 'system_status': 5, 'mavlink_version': 3}
[DEBUG][2021-05-01 15:09:34,121]{'mavpackettype': 'HEARTBEAT', 'type': 12, 'autopilot': 3, 'base_mode': 81, 'custom_mode': 19, 'system_status': 5, 'mavlink_version': 3}
[DEBUG][2021-05-01 15:09:34,132]{'mavpackettype': 'HEARTBEAT', 'type': 12, 'autopilot': 3, 'base_mode': 81, 'custom_mode': 19, 'system_status': 5, 'mavlink_version': 3}
[DEBUG][2021-05-01 15:09:34,142]{'mavpackettype': 'HEARTBEAT', 'type': 12, 'autopilot': 3, 'base_mode': 81, 'custom_mode': 19, 'system_status': 5, 'mavlink_version': 3}
[DEBUG][2021-05-01 15:09:34,153]{'mavpackettype': 'HEARTBEAT', 'type': 12, 'autopilot': 3, 'base_mode': 81, 'custom_mode': 19, 'system_status': 5, 'mavlink_version': 3}
[DEBUG][2021-05-01 15:09:34,163]{'mavpackettype': 'HEARTBEAT', 'type': 12, 'autopilot': 3, 'base_mode': 81, 'custom_mode': 19, 'system_status': 5, 'mavlink_version': 3}
[DEBUG][2021-05-01 15:09:34,174]{'mavpackettype': 'HEARTBEAT', 'type': 12, 'autopilot': 3, 'base_mode': 81, 'custom_mode': 19, 'system_status': 5, 'mavlink_version': 3}
[DEBUG][2021-05-01 15:09:34,184]{'mavpackettype': 'HEARTBEAT', 'type': 12, 'autopilot': 3, 'base_mode': 81, 'custom_mode': 19, 'system_status': 5, 'mavlink_version': 3}
[DEBUG][2021-05-01 15:09:34,195]{'mavpackettype': 'STATUSTEXT', 'severity': 6, 'text': 'ArduSub V4.0.3 (96882ed0)', 'id': 0, 'chunk_seq': 0}
[DEBUG][2021-05-01 15:09:34,205]{'mavpackettype': 'STATUSTEXT', 'severity': 6, 'text': 'ChibiOS: 0997003f', 'id': 0, 'chunk_seq': 0}
[DEBUG][2021-05-01 15:09:34,216]{'mavpackettype': 'STATUSTEXT', 'severity': 6, 'text': 'Pixhawk1 00270036 32305110 34393539', 'id': 0, 'chunk_seq': 0}
[DEBUG][2021-05-01 15:09:34,227]{'mavpackettype': 'PARAM_VALUE', 'param_id': 'SURFACE_DEPTH', 'param_value': -10.0, 'param_type': 9, 'param_count': 920, 'param_index': 0}
[DEBUG][2021-05-01 15:09:34,237]{'mavpackettype': 'PARAM_VALUE', 'param_id': 'SYSID_SW_MREV', 'param_value': 1.0, 'param_type': 4, 'param_count': 920, 'param_index': 1}
[DEBUG][2021-05-01 15:09:34,248]{'mavpackettype': 'PARAM_VALUE', 'param_id': 'SYSID_THISMAV', 'param_value': 1.0, 'param_type': 4, 'param_count': 920, 'param_index': 2}
[DEBUG][2021-05-01 15:09:34,258]{'mavpackettype': 'PARAM_VALUE', 'param_id': 'SYSID_MYGCS', 'param_value': 255.0, 'param_type': 4, 'param_count': 920, 'param_index': 3}
[DEBUG][2021-05-01 15:09:34,269]{'mavpackettype': 'PARAM_VALUE', 'param_id': 'PILOT_THR_FILT', 'param_value': 0.0, 'param_type': 9, 'param_count': 920, 'param_index': 4}
[DEBUG][2021-05-01 15:09:34,279]{'mavpackettype': 'PARAM_VALUE', 'param_id': 'SERIAL0_BAUD', 'param_value': 115.0, 'param_type': 6, 'param_count': 920, 'param_index': 5}
[DEBUG][2021-05-01 15:09:34,290]{'mavpackettype': 'PARAM_VALUE', 'param_id': 'SERIAL0_PROTOCOL', 'param_value': 2.0, 'param_type': 2, 'param_count': 920, 'param_index': 6}
[DEBUG][2021-05-01 15:09:34,300]{'mavpackettype': 'PARAM_VALUE', 'param_id': 'SERIAL1_PROTOCOL', 'param_value': 1.0, 'param_type': 2, 'param_count': 920, 'param_index': 7}
[DEBUG][2021-05-01 15:09:34,311]{'mavpackettype': 'PARAM_VALUE', 'param_id': 'SERIAL1_BAUD', 'param_value': 57.0, 'param_type': 6, 'param_count': 920, 'param_index': 8}
[DEBUG][2021-05-01 15:09:34,321]{'mavpackettype': 'PARAM_VALUE', 'param_id': 'SERIAL2_PROTOCOL', 'param_value': 1.0, 'param_type': 2, 'param_count': 920, 'param_index': 9}
[DEBUG][2021-05-01 15:09:34,332]{'mavpackettype': 'PARAM_VALUE', 'param_id': 'SERIAL2_BAUD', 'param_value': 57.0, 'param_type': 6, 'param_count': 920, 'param_index': 10}
[DEBUG][2021-05-01 15:09:34,342]{'mavpackettype': 'PARAM_VALUE', 'param_id': 'SERIAL3_PROTOCOL', 'param_value': 5.0, 'param_type': 2, 'param_count': 920, 'param_index': 11}
[DEBUG][2021-05-01 15:09:34,353]{'mavpackettype': 'PARAM_VALUE', 'param_id': 'SERIAL3_BAUD', 'param_value': 38.0, 'param_type': 6, 'param_count': 920, 'param_index': 12}
[DEBUG][2021-05-01 15:09:34,363]{'mavpackettype': 'PARAM_VALUE', 'param_id': 'SERIAL4_PROTOCOL', 'param_value': 5.0, 'param_type': 2, 'param_count': 920, 'param_index': 13}
[DEBUG][2021-05-01 15:09:34,374]{'mavpackettype': 'PARAM_VALUE', 'param_id': 'SERIAL4_BAUD', 'param_value': 38.0, 'param_type': 6, 'param_count': 920, 'param_index': 14}
[DEBUG][2021-05-01 15:09:34,384]{'mavpackettype': 'PARAM_VALUE', 'param_id': 'SERIAL5_PROTOCOL', 'param_value': -1.0, 'param_type': 2, 'param_count': 920, 'param_index': 15}
[DEBUG][2021-05-01 15:09:34,395]{'mavpackettype': 'PARAM_VALUE', 'param_id': 'SERIAL5_BAUD', 'param_value': 57.0, 'param_type': 6, 'param_count': 920, 'param_index': 16}
[DEBUG][2021-05-01 15:09:34,405]{'mavpackettype': 'PARAM_VALUE', 'param_id': 'SERIAL6_PROTOCOL', 'param_value': -1.0, 'param_type': 2, 'param_count': 920, 'param_index': 17}
[DEBUG][2021-05-01 15:09:34,416]{'mavpackettype': 'PARAM_VALUE', 'param_id': 'SERIAL6_BAUD', 'param_value': 57.0, 'param_type': 6, 'param_count': 920, 'param_index': 18}
[DEBUG][2021-05-01 15:09:34,426]{'mavpackettype': 'PARAM_VALUE', 'param_id': 'SERIAL1_OPTIONS', 'param_value': 0.0, 'param_type': 4, 'param_count': 920, 'param_index': 19}
[DEBUG][2021-05-01 15:09:34,437]{'mavpackettype': 'PARAM_VALUE', 'param_id': 'SERIAL2_OPTIONS', 'param_value': 0.0, 'param_type': 4, 'param_count': 920, 'param_index': 20}
[DEBUG][2021-05-01 15:09:34,447]{'mavpackettype': 'PARAM_VALUE', 'param_id': 'SERIAL3_OPTIONS', 'param_value': 0.0, 'param_type': 4, 'param_count': 920, 'param_index': 21}
[DEBUG][2021-05-01 15:09:34,458]{'mavpackettype': 'PARAM_VALUE', 'param_id': 'SERIAL4_OPTIONS', 'param_value': 0.0, 'param_type': 4, 'param_count': 920, 'param_index': 22}
[DEBUG][2021-05-01 15:09:34,468]{'mavpackettype': 'PARAM_VALUE', 'param_id': 'SERIAL5_OPTIONS', 'param_value': 0.0, 'param_type': 4, 'param_count': 920, 'param_index': 23}
[DEBUG][2021-05-01 15:09:34,479]{'mavpackettype': 'PARAM_VALUE', 'param_id': 'SERIAL6_OPTIONS', 'param_value': 0.0, 'param_type': 4, 'param_count': 920, 'param_index': 24}
[DEBUG][2021-05-01 15:09:34,489]{'mavpackettype': 'PARAM_VALUE', 'param_id': 'SERIAL_PASS1', 'param_value': 0.0, 'param_type': 2, 'param_count': 920, 'param_index': 25}
[DEBUG][2021-05-01 15:09:34,500]{'mavpackettype': 'PARAM_VALUE', 'param_id': 'SERIAL_PASS2', 'param_value': -1.0, 'param_type': 2, 'param_count': 920, 'param_index': 26}
[DEBUG][2021-05-01 15:09:34,510]{'mavpackettype': 'PARAM_VALUE', 'param_id': 'SERIAL_PASSTIMO', 'param_value': 15.0, 'param_type': 2, 'param_count': 920, 'param_index': 27}
[DEBUG][2021-05-01 15:09:34,521]{'mavpackettype': 'PARAM_VALUE', 'param_id': 'SERIAL7_PROTOCOL', 'param_value': -1.0, 'param_type': 2, 'param_count': 920, 'param_index': 28}
[DEBUG][2021-05-01 15:09:34,531]{'mavpackettype': 'PARAM_VALUE', 'param_id': 'SERIAL7_BAUD', 'param_value': 57.0, 'param_type': 6, 'param_count': 920, 'param_index': 29}
[DEBUG][2021-05-01 15:09:34,542]{'mavpackettype': 'PARAM_VALUE', 'param_id': 'SERIAL7_OPTIONS', 'param_value': 0.0, 'param_type': 4, 'param_count': 920, 'param_index': 30}
[DEBUG][2021-05-01 15:09:34,552]{'mavpackettype': 'PARAM_VALUE', 'param_id': 'GCS_PID_MASK', 'param_value': 0.0, 'param_type': 4, 'param_count': 920, 'param_index': 31}
[DEBUG][2021-05-01 15:09:34,563]{'mavpackettype': 'PARAM_VALUE', 'param_id': 'RNGFND_GAIN', 'param_value': 0.800000011920929, 'param_type': 9, 'param_count': 920, 'param_index': 32}
[DEBUG][2021-05-01 15:09:34,573]{'mavpackettype': 'PARAM_VALUE', 'param_id': 'FS_GCS_ENABLE', 'param_value': 2.0, 'param_type': 2, 'param_count': 920, 'param_index': 33}
[DEBUG][2021-05-01 15:09:34,584]{'mavpackettype': 'PARAM_VALUE', 'param_id': 'FS_LEAK_ENABLE', 'param_value': 0.0, 'param_type': 2, 'param_count': 920, 'param_index': 34}
[DEBUG][2021-05-01 15:09:34,594]{'mavpackettype': 'PARAM_VALUE', 'param_id': 'FS_PRESS_ENABLE', 'param_value': 0.0, 'param_type': 2, 'param_count': 920, 'param_index': 35}
[DEBUG][2021-05-01 15:09:34,605]{'mavpackettype': 'PARAM_VALUE', 'param_id': 'FS_TEMP_ENABLE', 'param_value': 0.0, 'param_type': 2, 'param_count': 920, 'param_index': 36}
[DEBUG][2021-05-01 15:09:34,615]{'mavpackettype': 'PARAM_VALUE', 'param_id': 'FS_PRESS_MAX', 'param_value': 105000.0, 'param_type': 6, 'param_count': 920, 'param_index': 37}
[DEBUG][2021-05-01 15:09:34,626]{'mavpackettype': 'PARAM_VALUE', 'param_id': 'FS_TEMP_MAX', 'param_value': 62.0, 'param_type': 2, 'param_count': 920, 'param_index': 38}
[DEBUG][2021-05-01 15:09:34,636]{'mavpackettype': 'PARAM_VALUE', 'param_id': 'FS_TERRAIN_ENAB', 'param_value': 0.0, 'param_type': 2, 'param_count': 920, 'param_index': 39}
[DEBUG][2021-05-01 15:09:34,647]{'mavpackettype': 'PARAM_VALUE', 'param_id': 'FS_PILOT_INPUT', 'param_value': 2.0, 'param_type': 2, 'param_count': 920, 'param_index': 40}
[DEBUG][2021-05-01 15:09:34,657]{'mavpackettype': 'PARAM_VALUE', 'param_id': 'FS_PILOT_TIMEOUT', 'param_value': 3.0, 'param_type': 9, 'param_count': 920, 'param_index': 41}
[DEBUG][2021-05-01 15:09:34,668]{'mavpackettype': 'PARAM_VALUE', 'param_id': 'XTRACK_ANG_LIM', 'param_value': 45.0, 'param_type': 2, 'param_count': 920, 'param_index': 42}
[DEBUG][2021-05-01 15:09:34,678]{'mavpackettype': 'PARAM_VALUE', 'param_id': 'WP_YAW_BEHAVIOR', 'param_value': 4.0, 'param_type': 2, 'param_count': 920, 'param_index': 43}
[DEBUG][2021-05-01 15:09:34,689]{'mavpackettype': 'PARAM_VALUE', 'param_id': 'PILOT_SPEED_UP', 'param_value': 500.0, 'param_type': 4, 'param_count': 920, 'param_index': 44}
[DEBUG][2021-05-01 15:09:34,699]{'mavpackettype': 'PARAM_VALUE', 'param_id': 'PILOT_SPEED_DN', 'param_value': 0.0, 'param_type': 4, 'param_count': 920, 'param_index': 45}
[DEBUG][2021-05-01 15:09:34,710]{'mavpackettype': 'PARAM_VALUE', 'param_id': 'PILOT_ACCEL_Z', 'param_value': 100.0, 'param_type': 4, 'param_count': 920, 'param_index': 46}
[DEBUG][2021-05-01 15:09:34,720]{'mavpackettype': 'PARAM_VALUE', 'param_id': 'THR_DZ', 'param_value': 100.0, 'param_type': 4, 'param_count': 920, 'param_index': 47}
[DEBUG][2021-05-01 15:09:34,731]{'mavpackettype': 'PARAM_VALUE', 'param_id': 'LOG_BITMASK', 'param_value': 176126.0, 'param_type': 6, 'param_count': 920, 'param_index': 48}
[DEBUG][2021-05-01 15:09:34,741]{'mavpackettype': 'PARAM_VALUE', 'param_id': 'ANGLE_MAX', 'param_value': 4500.0, 'param_type': 4, 'param_count': 920, 'param_index': 49}
[DEBUG][2021-05-01 15:09:34,752]{'mavpackettype': 'PARAM_VALUE', 'param_id': 'FS_EKF_ACTION', 'param_value': 0.0, 'param_type': 2, 'param_count': 920, 'param_index': 50}
[DEBUG][2021-05-01 15:09:34,762]{'mavpackettype': 'PARAM_VALUE', 'param_id': 'FS_EKF_THRESH', 'param_value': 0.800000011920929, 'param_type': 9, 'param_count': 920, 'param_index': 51}
[DEBUG][2021-05-01 15:09:34,773]{'mavpackettype': 'PARAM_VALUE', 'param_id': 'FS_CRASH_CHECK', 'param_value': 0.0, 'param_type': 2, 'param_count': 920, 'param_index': 52}
[DEBUG][2021-05-01 15:09:34,783]{'mavpackettype': 'PARAM_VALUE', 'param_id': 'JS_GAIN_DEFAULT', 'param_value': 0.5, 'param_type': 9, 'param_count': 920, 'param_index': 53}
[DEBUG][2021-05-01 15:09:34,794]{'mavpackettype': 'PARAM_VALUE', 'param_id': 'JS_GAIN_MAX', 'param_value': 1.0, 'param_type': 9, 'param_count': 920, 'param_index': 54}
[DEBUG][2021-05-01 15:09:34,804]{'mavpackettype': 'PARAM_VALUE', 'param_id': 'JS_GAIN_MIN', 'param_value': 0.25, 'param_type': 9, 'param_count': 920, 'param_index': 55}
[DEBUG][2021-05-01 15:09:34,815]{'mavpackettype': 'PARAM_VALUE', 'param_id': 'JS_GAIN_STEPS', 'param_value': 4.0, 'param_type': 2, 'param_count': 920, 'param_index': 56}
[DEBUG][2021-05-01 15:09:34,825]{'mavpackettype': 'PARAM_VALUE', 'param_id': 'JS_LIGHTS_STEPS', 'param_value': 8.0, 'param_type': 4, 'param_count': 920, 'param_index': 57}
[DEBUG][2021-05-01 15:09:34,836]{'mavpackettype': 'PARAM_VALUE', 'param_id': 'JS_THR_GAIN', 'param_value': 1.0, 'param_type': 9, 'param_count': 920, 'param_index': 58}
[DEBUG][2021-05-01 15:09:34,846]{'mavpackettype': 'PARAM_VALUE', 'param_id': 'FRAME_CONFIG', 'param_value': 4.0, 'param_type': 2, 'param_count': 920, 'param_index': 59}
[DEBUG][2021-05-01 15:09:34,857]{'mavpackettype': 'PARAM_VALUE', 'param_id': 'BTN0_FUNCTION', 'param_value': 0.0, 'param_type': 2, 'param_count': 920, 'param_index': 60}
[DEBUG][2021-05-01 15:09:34,867]{'mavpackettype': 'PARAM_VALUE', 'param_id': 'BTN0_SFUNCTION', 'param_value': 0.0, 'param_type': 2, 'param_count': 920, 'param_index': 61}
[DEBUG][2021-05-01 15:09:34,878]{'mavpackettype': 'PARAM_VALUE', 'param_id': 'BTN1_FUNCTION', 'param_value': 5.0, 'param_type': 2, 'param_count': 920, 'param_index': 62}
[DEBUG][2021-05-01 15:09:34,888]{'mavpackettype': 'PARAM_VALUE', 'param_id': 'BTN1_SFUNCTION', 'param_value': 0.0, 'param_type': 2, 'param_count': 920, 'param_index': 63}
[DEBUG][2021-05-01 15:09:34,899]{'mavpackettype': 'PARAM_VALUE', 'param_id': 'BTN2_FUNCTION', 'param_value': 7.0, 'param_type': 2, 'param_count': 920, 'param_index': 64}
[DEBUG][2021-05-01 15:09:34,910]{'mavpackettype': 'PARAM_VALUE', 'param_id': 'BTN2_SFUNCTION', 'param_value': 0.0, 'param_type': 2, 'param_count': 920, 'param_index': 65}
[DEBUG][2021-05-01 15:09:34,921]{'mavpackettype': 'PARAM_VALUE', 'param_id': 'BTN3_FUNCTION', 'param_value': 6.0, 'param_type': 2, 'param_count': 920, 'param_index': 66}
[DEBUG][2021-05-01 15:09:34,932]{'mavpackettype': 'PARAM_VALUE', 'param_id': 'BTN3_SFUNCTION', 'param_value': 0.0, 'param_type': 2, 'param_count': 920, 'param_index': 67}
[DEBUG][2021-05-01 15:09:34,943]{'mavpackettype': 'PARAM_VALUE', 'param_id': 'BTN4_FUNCTION', 'param_value': 4.0, 'param_type': 2, 'param_count': 920, 'param_index': 68}
[DEBUG][2021-05-01 15:09:34,954]{'mavpackettype': 'PARAM_VALUE', 'param_id': 'BTN4_SFUNCTION', 'param_value': 0.0, 'param_type': 2, 'param_count': 920, 'param_index': 69}
[DEBUG][2021-05-01 15:09:34,965]{'mavpackettype': 'PARAM_VALUE', 'param_id': 'BTN5_FUNCTION', 'param_value': 1.0, 'param_type': 2, 'param_count': 920, 'param_index': 70}
[DEBUG][2021-05-01 15:09:34,976]{'mavpackettype': 'PARAM_VALUE', 'param_id': 'BTN5_SFUNCTION', 'param_value': 0.0, 'param_type': 2, 'param_count': 920, 'param_index': 71}
[DEBUG][2021-05-01 15:09:34,987]{'mavpackettype': 'PARAM_VALUE', 'param_id': 'BTN6_FUNCTION', 'param_value': 3.0, 'param_type': 2, 'param_count': 920, 'param_index': 72}
[DEBUG][2021-05-01 15:09:34,999]{'mavpackettype': 'PARAM_VALUE', 'param_id': 'BTN6_SFUNCTION', 'param_value': 0.0, 'param_type': 2, 'param_count': 920, 'param_index': 73}
[DEBUG][2021-05-01 15:09:35,010]{'mavpackettype': 'PARAM_VALUE', 'param_id': 'BTN7_FUNCTION', 'param_value': 21.0, 'param_type': 2, 'param_count': 920, 'param_index': 74}
[DEBUG][2021-05-01 15:09:35,021]{'mavpackettype': 'PARAM_VALUE', 'param_id': 'BTN7_SFUNCTION', 'param_value': 0.0, 'param_type': 2, 'param_count': 920, 'param_index': 75}
[DEBUG][2021-05-01 15:09:35,032]{'mavpackettype': 'PARAM_VALUE', 'param_id': 'BTN8_FUNCTION', 'param_value': 48.0, 'param_type': 2, 'param_count': 920, 'param_index': 76}
[DEBUG][2021-05-01 15:09:35,043]{'mavpackettype': 'PARAM_VALUE', 'param_id': 'BTN8_SFUNCTION', 'param_value': 0.0, 'param_type': 2, 'param_count': 920, 'param_index': 77}
[DEBUG][2021-05-01 15:09:35,054]{'mavpackettype': 'PARAM_VALUE', 'param_id': 'BTN9_FUNCTION', 'param_value': 23.0, 'param_type': 2, 'param_count': 920, 'param_index': 78}
[DEBUG][2021-05-01 15:09:35,065]{'mavpackettype': 'PARAM_VALUE', 'param_id': 'BTN9_SFUNCTION', 'param_value': 27.0, 'param_type': 2, 'param_count': 920, 'param_index': 79}
[DEBUG][2021-05-01 15:09:35,076]{'mavpackettype': 'PARAM_VALUE', 'param_id': 'BTN10_FUNCTION', 'param_value': 22.0, 'param_type': 2, 'param_count': 920, 'param_index': 80}
[DEBUG][2021-05-01 15:09:35,087]{'mavpackettype': 'PARAM_VALUE', 'param_id': 'BTN10_SFUNCTION', 'param_value': 26.0, 'param_type': 2, 'param_count': 920, 'param_index': 81}
[DEBUG][2021-05-01 15:09:35,098]{'mavpackettype': 'PARAM_VALUE', 'param_id': 'BTN11_FUNCTION', 'param_value': 42.0, 'param_type': 2, 'param_count': 920, 'param_index': 82}
[DEBUG][2021-05-01 15:09:35,108]{'mavpackettype': 'PARAM_VALUE', 'param_id': 'BTN11_SFUNCTION', 'param_value': 47.0, 'param_type': 2, 'param_count': 920, 'param_index': 83}
[DEBUG][2021-05-01 15:09:35,119]{'mavpackettype': 'PARAM_VALUE', 'param_id': 'BTN12_FUNCTION', 'param_value': 43.0, 'param_type': 2, 'param_count': 920, 'param_index': 84}
[DEBUG][2021-05-01 15:09:35,130]{'mavpackettype': 'PARAM_VALUE', 'param_id': 'BTN12_SFUNCTION', 'param_value': 46.0, 'param_type': 2, 'param_count': 920, 'param_index': 85}
[DEBUG][2021-05-01 15:09:35,141]{'mavpackettype': 'PARAM_VALUE', 'param_id': 'BTN13_FUNCTION', 'param_value': 33.0, 'param_type': 2, 'param_count': 920, 'param_index': 86}
[DEBUG][2021-05-01 15:09:35,152]{'mavpackettype': 'PARAM_VALUE', 'param_id': 'BTN13_SFUNCTION', 'param_value': 45.0, 'param_type': 2, 'param_count': 920, 'param_index': 87}
[DEBUG][2021-05-01 15:09:35,163]{'mavpackettype': 'PARAM_VALUE', 'param_id': 'BTN14_FUNCTION', 'param_value': 32.0, 'param_type': 2, 'param_count': 920, 'param_index': 88}
[DEBUG][2021-05-01 15:09:35,174]{'mavpackettype': 'PARAM_VALUE', 'param_id': 'BTN14_SFUNCTION', 'param_value': 44.0, 'param_type': 2, 'param_count': 920, 'param_index': 89}
[DEBUG][2021-05-01 15:09:35,185]{'mavpackettype': 'PARAM_VALUE', 'param_id': 'BTN15_FUNCTION', 'param_value': 0.0, 'param_type': 2, 'param_count': 920, 'param_index': 90}
[DEBUG][2021-05-01 15:09:35,196]{'mavpackettype': 'PARAM_VALUE', 'param_id': 'BTN15_SFUNCTION', 'param_value': 0.0, 'param_type': 2, 'param_count': 920, 'param_index': 91}
[DEBUG][2021-05-01 15:09:35,207]{'mavpackettype': 'PARAM_VALUE', 'param_id': 'RC_SPEED', 'param_value': 200.0, 'param_type': 4, 'param_count': 920, 'param_index': 92}
[DEBUG][2021-05-01 15:09:35,218]{'mavpackettype': 'PARAM_VALUE', 'param_id': 'ACRO_RP_P', 'param_value': 4.5, 'param_type': 9, 'param_count': 920, 'param_index': 93}
[DEBUG][2021-05-01 15:09:35,229]{'mavpackettype': 'PARAM_VALUE', 'param_id': 'ACRO_YAW_P', 'param_value': 3.375, 'param_type': 9, 'param_count': 920, 'param_index': 94}
[DEBUG][2021-05-01 15:09:35,240]{'mavpackettype': 'PARAM_VALUE', 'param_id': 'ACRO_BAL_ROLL', 'param_value': 1.0, 'param_type': 9, 'param_count': 920, 'param_index': 95}
[DEBUG][2021-05-01 15:09:35,251]{'mavpackettype': 'PARAM_VALUE', 'param_id': 'ACRO_BAL_PITCH', 'param_value': 1.0, 'param_type': 9, 'param_count': 920, 'param_index': 96}
[DEBUG][2021-05-01 15:09:35,262]{'mavpackettype': 'PARAM_VALUE', 'param_id': 'ACRO_TRAINER', 'param_value': 2.0, 'param_type': 2, 'param_count': 920, 'param_index': 97}
[DEBUG][2021-05-01 15:09:35,273]{'mavpackettype': 'PARAM_VALUE', 'param_id': 'ACRO_EXPO', 'param_value': 0.30000001192092896, 'param_type': 9, 'param_count': 920, 'param_index': 98}
[DEBUG][2021-05-01 15:09:35,284]{'mavpackettype': 'PARAM_VALUE', 'param_id': 'RELAY_PIN', 'param_value': 54.0, 'param_type': 2, 'param_count': 920, 'param_index': 99}
[DEBUG][2021-05-01 15:09:35,295]{'mavpackettype': 'PARAM_VALUE', 'param_id': 'RELAY_PIN2', 'param_value': 55.0, 'param_type': 2, 'param_count': 920, 'param_index': 100}
[DEBUG][2021-05-01 15:09:35,306]{'mavpackettype': 'PARAM_VALUE', 'param_id': 'RELAY_PIN3', 'param_value': -1.0, 'param_type': 2, 'param_count': 920, 'param_index': 101}
[DEBUG][2021-05-01 15:09:35,317]{'mavpackettype': 'PARAM_VALUE', 'param_id': 'RELAY_PIN4', 'param_value': -1.0, 'param_type': 2, 'param_count': 920, 'param_index': 102}
[DEBUG][2021-05-01 15:09:35,327]{'mavpackettype': 'PARAM_VALUE', 'param_id': 'RELAY_DEFAULT', 'param_value': 0.0, 'param_type': 2, 'param_count': 920, 'param_index': 103}
[DEBUG][2021-05-01 15:09:35,338]{'mavpackettype': 'PARAM_VALUE', 'param_id': 'RELAY_PIN5', 'param_value': -1.0, 'param_type': 2, 'param_count': 920, 'param_index': 104}
[DEBUG][2021-05-01 15:09:35,349]{'mavpackettype': 'PARAM_VALUE', 'param_id': 'RELAY_PIN6', 'param_value': -1.0, 'param_type': 2, 'param_count': 920, 'param_index': 105}
[DEBUG][2021-05-01 15:09:35,360]{'mavpackettype': 'PARAM_VALUE', 'param_id': 'COMPASS_OFS_X', 'param_value': 120.69017791748047, 'param_type': 9, 'param_count': 920, 'param_index': 106}
[DEBUG][2021-05-01 15:09:35,371]{'mavpackettype': 'PARAM_VALUE', 'param_id': 'COMPASS_OFS_Y', 'param_value': 313.0037536621094, 'param_type': 9, 'param_count': 920, 'param_index': 107}
[DEBUG][2021-05-01 15:09:35,382]{'mavpackettype': 'PARAM_VALUE', 'param_id': 'COMPASS_OFS_Z', 'param_value': 113.15762329101562, 'param_type': 9, 'param_count': 920, 'param_index': 108}
[DEBUG][2021-05-01 15:09:35,393]{'mavpackettype': 'PARAM_VALUE', 'param_id': 'COMPASS_DEC', 'param_value': 0.0, 'param_type': 9, 'param_count': 920, 'param_index': 109}
[DEBUG][2021-05-01 15:09:35,405]{'mavpackettype': 'PARAM_VALUE', 'param_id': 'COMPASS_LEARN', 'param_value': 0.0, 'param_type': 2, 'param_count': 920, 'param_index': 110}
[DEBUG][2021-05-01 15:09:35,416]{'mavpackettype': 'PARAM_VALUE', 'param_id': 'COMPASS_USE', 'param_value': 1.0, 'param_type': 2, 'param_count': 920, 'param_index': 111}
[DEBUG][2021-05-01 15:09:35,427]{'mavpackettype': 'PARAM_VALUE', 'param_id': 'COMPASS_AUTODEC', 'param_value': 1.0, 'param_type': 2, 'param_count': 920, 'param_index': 112}
[DEBUG][2021-05-01 15:09:35,438]{'mavpackettype': 'PARAM_VALUE', 'param_id': 'COMPASS_MOTCT', 'param_value': 0.0, 'param_type': 2, 'param_count': 920, 'param_index': 113}
[DEBUG][2021-05-01 15:09:35,449]{'mavpackettype': 'PARAM_VALUE', 'param_id': 'COMPASS_MOT_X', 'param_value': 0.0, 'param_type': 9, 'param_count': 920, 'param_index': 114}
[DEBUG][2021-05-01 15:09:35,460]{'mavpackettype': 'PARAM_VALUE', 'param_id': 'COMPASS_MOT_Y', 'param_value': 0.0, 'param_type': 9, 'param_count': 920, 'param_index': 115}
[DEBUG][2021-05-01 15:09:35,471]{'mavpackettype': 'PARAM_VALUE', 'param_id': 'COMPASS_MOT_Z', 'param_value': 0.0, 'param_type': 9, 'param_count': 920, 'param_index': 116}
[DEBUG][2021-05-01 15:09:35,482]{'mavpackettype': 'HEARTBEAT', 'type': 12, 'autopilot': 3, 'base_mode': 81, 'custom_mode': 19, 'system_status': 5, 'mavlink_version': 3}
[DEBUG][2021-05-01 15:09:35,492]{'mavpackettype': 'PARAM_VALUE', 'param_id': 'COMPASS_ORIENT', 'param_value': 0.0, 'param_type': 2, 'param_count': 920, 'param_index': 117}
[DEBUG][2021-05-01 15:09:35,503]{'mavpackettype': 'PARAM_VALUE', 'param_id': 'COMPASS_EXTERNAL', 'param_value': 0.0, 'param_type': 2, 'param_count': 920, 'param_index': 118}
[DEBUG][2021-05-01 15:09:35,514]{'mavpackettype': 'PARAM_VALUE', 'param_id': 'COMPASS_OFS2_X', 'param_value': 0.0, 'param_type': 9, 'param_count': 920, 'param_index': 119}
[DEBUG][2021-05-01 15:09:35,525]{'mavpackettype': 'PARAM_VALUE', 'param_id': 'COMPASS_OFS2_Y', 'param_value': 0.0, 'param_type': 9, 'param_count': 920, 'param_index': 120}
[DEBUG][2021-05-01 15:09:35,536]{'mavpackettype': 'PARAM_VALUE', 'param_id': 'COMPASS_OFS2_Z', 'param_value': 0.0, 'param_type': 9, 'param_count': 920, 'param_index': 121}
[DEBUG][2021-05-01 15:09:35,547]{'mavpackettype': 'PARAM_VALUE', 'param_id': 'COMPASS_MOT2_X', 'param_value': 0.0, 'param_type': 9, 'param_count': 920, 'param_index': 122}
[DEBUG][2021-05-01 15:09:35,558]{'mavpackettype': 'PARAM_VALUE', 'param_id': 'COMPASS_MOT2_Y', 'param_value': 0.0, 'param_type': 9, 'param_count': 920, 'param_index': 123}
[DEBUG][2021-05-01 15:09:35,569]{'mavpackettype': 'PARAM_VALUE', 'param_id': 'COMPASS_MOT2_Z', 'param_value': 0.0, 'param_type': 9, 'param_count': 920, 'param_index': 124}
[DEBUG][2021-05-01 15:09:35,580]{'mavpackettype': 'PARAM_VALUE', 'param_id': 'COMPASS_PRIMARY', 'param_value': 0.0, 'param_type': 2, 'param_count': 920, 'param_index': 125}
[DEBUG][2021-05-01 15:09:35,591]{'mavpackettype': 'PARAM_VALUE', 'param_id': 'COMPASS_OFS3_X', 'param_value': 0.0, 'param_type': 9, 'param_count': 920, 'param_index': 126}
[DEBUG][2021-05-01 15:09:35,602]{'mavpackettype': 'PARAM_VALUE', 'param_id': 'COMPASS_OFS3_Y', 'param_value': 0.0, 'param_type': 9, 'param_count': 920, 'param_index': 127}
[DEBUG][2021-05-01 15:09:35,613]{'mavpackettype': 'PARAM_VALUE', 'param_id': 'COMPASS_OFS3_Z', 'param_value': 0.0, 'param_type': 9, 'param_count': 920, 'param_index': 128}
[DEBUG][2021-05-01 15:09:35,624]{'mavpackettype': 'PARAM_VALUE', 'param_id': 'COMPASS_MOT3_X', 'param_value': 0.0, 'param_type': 9, 'param_count': 920, 'param_index': 129}
[DEBUG][2021-05-01 15:09:35,635]{'mavpackettype': 'PARAM_VALUE', 'param_id': 'COMPASS_MOT3_Y', 'param_value': 0.0, 'param_type': 9, 'param_count': 920, 'param_index': 130}
[DEBUG][2021-05-01 15:09:35,646]{'mavpackettype': 'PARAM_VALUE', 'param_id': 'COMPASS_MOT3_Z', 'param_value': 0.0, 'param_type': 9, 'param_count': 920, 'param_index': 131}
[DEBUG][2021-05-01 15:09:35,657]{'mavpackettype': 'PARAM_VALUE', 'param_id': 'COMPASS_DEV_ID', 'param_value': 658945.0, 'param_type': 6, 'param_count': 920, 'param_index': 132}
[DEBUG][2021-05-01 15:09:35,668]{'mavpackettype': 'PARAM_VALUE', 'param_id': 'COMPASS_DEV_ID2', 'param_value': 0.0, 'param_type': 6, 'param_count': 920, 'param_index': 133}
[DEBUG][2021-05-01 15:09:35,679]{'mavpackettype': 'PARAM_VALUE', 'param_id': 'COMPASS_DEV_ID3', 'param_value': 0.0, 'param_type': 6, 'param_count': 920, 'param_index': 134}
[DEBUG][2021-05-01 15:09:35,690]{'mavpackettype': 'PARAM_VALUE', 'param_id': 'COMPASS_USE2', 'param_value': 0.0, 'param_type': 2, 'param_count': 920, 'param_index': 135}
[DEBUG][2021-05-01 15:09:35,701]{'mavpackettype': 'PARAM_VALUE', 'param_id': 'COMPASS_ORIENT2', 'param_value': 0.0, 'param_type': 2, 'param_count': 920, 'param_index': 136}
[DEBUG][2021-05-01 15:09:35,712]{'mavpackettype': 'PARAM_VALUE', 'param_id': 'COMPASS_EXTERN2', 'param_value': 0.0, 'param_type': 2, 'param_count': 920, 'param_index': 137}
[DEBUG][2021-05-01 15:09:35,723]{'mavpackettype': 'PARAM_VALUE', 'param_id': 'COMPASS_USE3', 'param_value': 1.0, 'param_type': 2, 'param_count': 920, 'param_index': 138}
[DEBUG][2021-05-01 15:09:35,734]{'mavpackettype': 'PARAM_VALUE', 'param_id': 'COMPASS_ORIENT3', 'param_value': 0.0, 'param_type': 2, 'param_count': 920, 'param_index': 139}
[DEBUG][2021-05-01 15:09:35,745]{'mavpackettype': 'PARAM_VALUE', 'param_id': 'COMPASS_EXTERN3', 'param_value': 0.0, 'param_type': 2, 'param_count': 920, 'param_index': 140}
[DEBUG][2021-05-01 15:09:35,755]{'mavpackettype': 'PARAM_VALUE', 'param_id': 'COMPASS_DIA_X', 'param_value': 1.0456874370574951, 'param_type': 9, 'param_count': 920, 'param_index': 141}
[DEBUG][2021-05-01 15:09:35,766]{'mavpackettype': 'PARAM_VALUE', 'param_id': 'COMPASS_DIA_Y', 'param_value': 0.9997857213020325, 'param_type': 9, 'param_count': 920, 'param_index': 142}
[DEBUG][2021-05-01 15:09:35,778]{'mavpackettype': 'PARAM_VALUE', 'param_id': 'COMPASS_DIA_Z', 'param_value': 0.9949539303779602, 'param_type': 9, 'param_count': 920, 'param_index': 143}
[DEBUG][2021-05-01 15:09:35,788]{'mavpackettype': 'PARAM_VALUE', 'param_id': 'COMPASS_ODI_X', 'param_value': 0.020361509174108505, 'param_type': 9, 'param_count': 920, 'param_index': 144}
[DEBUG][2021-05-01 15:09:35,799]{'mavpackettype': 'PARAM_VALUE', 'param_id': 'COMPASS_ODI_Y', 'param_value': 0.029826069250702858, 'param_type': 9, 'param_count': 920, 'param_index': 145}
[DEBUG][2021-05-01 15:09:35,810]{'mavpackettype': 'PARAM_VALUE', 'param_id': 'COMPASS_ODI_Z', 'param_value': -0.06637952476739883, 'param_type': 9, 'param_count': 920, 'param_index': 146}
[DEBUG][2021-05-01 15:09:35,821]{'mavpackettype': 'PARAM_VALUE', 'param_id': 'COMPASS_DIA2_X', 'param_value': 0.0, 'param_type': 9, 'param_count': 920, 'param_index': 147}
[DEBUG][2021-05-01 15:09:35,832]{'mavpackettype': 'PARAM_VALUE', 'param_id': 'COMPASS_DIA2_Y', 'param_value': 0.0, 'param_type': 9, 'param_count': 920, 'param_index': 148}
[DEBUG][2021-05-01 15:09:35,843]{'mavpackettype': 'PARAM_VALUE', 'param_id': 'COMPASS_DIA2_Z', 'param_value': 0.0, 'param_type': 9, 'param_count': 920, 'param_index': 149}
[DEBUG][2021-05-01 15:09:35,854]{'mavpackettype': 'PARAM_VALUE', 'param_id': 'COMPASS_ODI2_X', 'param_value': 0.0, 'param_type': 9, 'param_count': 920, 'param_index': 150}
[DEBUG][2021-05-01 15:09:35,865]{'mavpackettype': 'PARAM_VALUE', 'param_id': 'COMPASS_ODI2_Y', 'param_value': 0.0, 'param_type': 9, 'param_count': 920, 'param_index': 151}
[DEBUG][2021-05-01 15:09:35,876]{'mavpackettype': 'PARAM_VALUE', 'param_id': 'COMPASS_ODI2_Z', 'param_value': 0.0, 'param_type': 9, 'param_count': 920, 'param_index': 152}
[DEBUG][2021-05-01 15:09:35,887]{'mavpackettype': 'PARAM_VALUE', 'param_id': 'COMPASS_DIA3_X', 'param_value': 0.0, 'param_type': 9, 'param_count': 920, 'param_index': 153}
[DEBUG][2021-05-01 15:09:35,898]{'mavpackettype': 'PARAM_VALUE', 'param_id': 'COMPASS_DIA3_Y', 'param_value': 0.0, 'param_type': 9, 'param_count': 920, 'param_index': 154}
[DEBUG][2021-05-01 15:09:35,909]{'mavpackettype': 'PARAM_VALUE', 'param_id': 'COMPASS_DIA3_Z', 'param_value': 0.0, 'param_type': 9, 'param_count': 920, 'param_index': 155}
[DEBUG][2021-05-01 15:09:35,920]{'mavpackettype': 'PARAM_VALUE', 'param_id': 'COMPASS_ODI3_X', 'param_value': 0.0, 'param_type': 9, 'param_count': 920, 'param_index': 156}
[DEBUG][2021-05-01 15:09:35,930]{'mavpackettype': 'PARAM_VALUE', 'param_id': 'COMPASS_ODI3_Y', 'param_value': 0.0, 'param_type': 9, 'param_count': 920, 'param_index': 157}
[DEBUG][2021-05-01 15:09:35,941]{'mavpackettype': 'PARAM_VALUE', 'param_id': 'COMPASS_ODI3_Z', 'param_value': 0.0, 'param_type': 9, 'param_count': 920, 'param_index': 158}
[DEBUG][2021-05-01 15:09:35,952]{'mavpackettype': 'PARAM_VALUE', 'param_id': 'COMPASS_CAL_FIT', 'param_value': 100.0, 'param_type': 9, 'param_count': 920, 'param_index': 159}
[DEBUG][2021-05-01 15:09:35,963]{'mavpackettype': 'PARAM_VALUE', 'param_id': 'COMPASS_OFFS_MAX', 'param_value': 1000.0, 'param_type': 4, 'param_count': 920, 'param_index': 160}
[DEBUG][2021-05-01 15:09:35,974]{'mavpackettype': 'TIMESYNC', 'tc1': 0, 'ts1': 4074114304001}
[DEBUG][2021-05-01 15:09:35,985]{'mavpackettype': 'PARAM_VALUE', 'param_id': 'COMPASS_PMOT_EN', 'param_value': 0.0, 'param_type': 2, 'param_count': 920, 'param_index': 161}
[DEBUG][2021-05-01 15:09:35,996]{'mavpackettype': 'PARAM_VALUE', 'param_id': 'COMPASS_TYPEMASK', 'param_value': 0.0, 'param_type': 6, 'param_count': 920, 'param_index': 162}
[DEBUG][2021-05-01 15:09:36,007]{'mavpackettype': 'PARAM_VALUE', 'param_id': 'COMPASS_FLTR_RNG', 'param_value': 0.0, 'param_type': 2, 'param_count': 920, 'param_index': 163}
[DEBUG][2021-05-01 15:09:36,018]{'mavpackettype': 'PARAM_VALUE', 'param_id': 'COMPASS_AUTO_ROT', 'param_value': 2.0, 'param_type': 2, 'param_count': 920, 'param_index': 164}
[DEBUG][2021-05-01 15:09:36,029]{'mavpackettype': 'PARAM_VALUE', 'param_id': 'COMPASS_EXP_DID', 'param_value': -1.0, 'param_type': 6, 'param_count': 920, 'param_index': 165}
[DEBUG][2021-05-01 15:09:36,040]{'mavpackettype': 'PARAM_VALUE', 'param_id': 'COMPASS_EXP_DID2', 'param_value': -1.0, 'param_type': 6, 'param_count': 920, 'param_index': 166}
[DEBUG][2021-05-01 15:09:36,051]{'mavpackettype': 'PARAM_VALUE', 'param_id': 'COMPASS_EXP_DID3', 'param_value': -1.0, 'param_type': 6, 'param_count': 920, 'param_index': 167}
[DEBUG][2021-05-01 15:09:36,062]{'mavpackettype': 'PARAM_VALUE', 'param_id': 'COMPASS_ENABLE', 'param_value': 1.0, 'param_type': 2, 'param_count': 920, 'param_index': 168}
[DEBUG][2021-05-01 15:09:36,073]{'mavpackettype': 'PARAM_VALUE', 'param_id': 'INS_GYROFFS_X', 'param_value': -0.018780427053570747, 'param_type': 9, 'param_count': 920, 'param_index': 169}
[DEBUG][2021-05-01 15:09:36,084]{'mavpackettype': 'PARAM_VALUE', 'param_id': 'INS_GYROFFS_Y', 'param_value': 0.04067935794591904, 'param_type': 9, 'param_count': 920, 'param_index': 170}
[DEBUG][2021-05-01 15:09:36,096]{'mavpackettype': 'PARAM_VALUE', 'param_id': 'INS_GYROFFS_Z', 'param_value': 0.01436578668653965, 'param_type': 9, 'param_count': 920, 'param_index': 171}
[DEBUG][2021-05-01 15:09:36,107]{'mavpackettype': 'PARAM_VALUE', 'param_id': 'INS_GYR2OFFS_X', 'param_value': 0.0, 'param_type': 9, 'param_count': 920, 'param_index': 172}
[DEBUG][2021-05-01 15:09:36,118]{'mavpackettype': 'PARAM_VALUE', 'param_id': 'INS_GYR2OFFS_Y', 'param_value': 0.0, 'param_type': 9, 'param_count': 920, 'param_index': 173}
[DEBUG][2021-05-01 15:09:36,129]{'mavpackettype': 'PARAM_VALUE', 'param_id': 'INS_GYR2OFFS_Z', 'param_value': 0.0, 'param_type': 9, 'param_count': 920, 'param_index': 174}
[DEBUG][2021-05-01 15:09:36,139]{'mavpackettype': 'PARAM_VALUE', 'param_id': 'INS_GYR3OFFS_X', 'param_value': 0.0, 'param_type': 9, 'param_count': 920, 'param_index': 175}
[DEBUG][2021-05-01 15:09:36,150]{'mavpackettype': 'PARAM_VALUE', 'param_id': 'INS_GYR3OFFS_Y', 'param_value': 0.0, 'param_type': 9, 'param_count': 920, 'param_index': 176}
[DEBUG][2021-05-01 15:09:36,161]{'mavpackettype': 'PARAM_VALUE', 'param_id': 'INS_GYR3OFFS_Z', 'param_value': 0.0, 'param_type': 9, 'param_count': 920, 'param_index': 177}
[DEBUG][2021-05-01 15:09:36,172]{'mavpackettype': 'PARAM_VALUE', 'param_id': 'INS_ACCSCAL_X', 'param_value': 0.9943621754646301, 'param_type': 9, 'param_count': 920, 'param_index': 178}
[DEBUG][2021-05-01 15:09:36,183]{'mavpackettype': 'PARAM_VALUE', 'param_id': 'INS_ACCSCAL_Y', 'param_value': 1.0018270015716553, 'param_type': 9, 'param_count': 920, 'param_index': 179}
[DEBUG][2021-05-01 15:09:36,194]{'mavpackettype': 'PARAM_VALUE', 'param_id': 'INS_ACCSCAL_Z', 'param_value': 0.9845852255821228, 'param_type': 9, 'param_count': 920, 'param_index': 180}
[DEBUG][2021-05-01 15:09:36,205]{'mavpackettype': 'PARAM_VALUE', 'param_id': 'INS_ACCOFFS_X', 'param_value': -0.16811467707157135, 'param_type': 9, 'param_count': 920, 'param_index': 181}
[DEBUG][2021-05-01 15:09:36,216]{'mavpackettype': 'PARAM_VALUE', 'param_id': 'INS_ACCOFFS_Y', 'param_value': -0.24769093096256256, 'param_type': 9, 'param_count': 920, 'param_index': 182}
[DEBUG][2021-05-01 15:09:36,227]{'mavpackettype': 'PARAM_VALUE', 'param_id': 'INS_ACCOFFS_Z', 'param_value': -0.6976189613342285, 'param_type': 9, 'param_count': 920, 'param_index': 183}
[DEBUG][2021-05-01 15:09:36,238]{'mavpackettype': 'PARAM_VALUE', 'param_id': 'INS_ACC2SCAL_X', 'param_value': 0.0, 'param_type': 9, 'param_count': 920, 'param_index': 184}
[DEBUG][2021-05-01 15:09:36,249]{'mavpackettype': 'PARAM_VALUE', 'param_id': 'INS_ACC2SCAL_Y', 'param_value': 0.0, 'param_type': 9, 'param_count': 920, 'param_index': 185}
[DEBUG][2021-05-01 15:09:36,260]{'mavpackettype': 'PARAM_VALUE', 'param_id': 'INS_ACC2SCAL_Z', 'param_value': 0.0, 'param_type': 9, 'param_count': 920, 'param_index': 186}
[DEBUG][2021-05-01 15:09:36,271]{'mavpackettype': 'PARAM_VALUE', 'param_id': 'INS_ACC2OFFS_X', 'param_value': 0.0, 'param_type': 9, 'param_count': 920, 'param_index': 187}
[DEBUG][2021-05-01 15:09:36,282]{'mavpackettype': 'PARAM_VALUE', 'param_id': 'INS_ACC2OFFS_Y', 'param_value': 0.0, 'param_type': 9, 'param_count': 920, 'param_index': 188}
[DEBUG][2021-05-01 15:09:36,293]{'mavpackettype': 'PARAM_VALUE', 'param_id': 'INS_ACC2OFFS_Z', 'param_value': 0.0, 'param_type': 9, 'param_count': 920, 'param_index': 189}
[DEBUG][2021-05-01 15:09:36,304]{'mavpackettype': 'PARAM_VALUE', 'param_id': 'INS_ACC3SCAL_X', 'param_value': 0.0, 'param_type': 9, 'param_count': 920, 'param_index': 190}
[DEBUG][2021-05-01 15:09:36,315]{'mavpackettype': 'PARAM_VALUE', 'param_id': 'INS_ACC3SCAL_Y', 'param_value': 0.0, 'param_type': 9, 'param_count': 920, 'param_index': 191}
[DEBUG][2021-05-01 15:09:36,326]{'mavpackettype': 'PARAM_VALUE', 'param_id': 'INS_ACC3SCAL_Z', 'param_value': 0.0, 'param_type': 9, 'param_count': 920, 'param_index': 192}
[DEBUG][2021-05-01 15:09:36,337]{'mavpackettype': 'PARAM_VALUE', 'param_id': 'INS_ACC3OFFS_X', 'param_value': 0.0, 'param_type': 9, 'param_count': 920, 'param_index': 193}
[DEBUG][2021-05-01 15:09:36,348]{'mavpackettype': 'PARAM_VALUE', 'param_id': 'INS_ACC3OFFS_Y', 'param_value': 0.0, 'param_type': 9, 'param_count': 920, 'param_index': 194}
[DEBUG][2021-05-01 15:09:36,359]{'mavpackettype': 'PARAM_VALUE', 'param_id': 'INS_ACC3OFFS_Z', 'param_value': 0.0, 'param_type': 9, 'param_count': 920, 'param_index': 195}
[DEBUG][2021-05-01 15:09:36,370]{'mavpackettype': 'PARAM_VALUE', 'param_id': 'INS_GYRO_FILTER', 'param_value': 20.0, 'param_type': 4, 'param_count': 920, 'param_index': 196}
[DEBUG][2021-05-01 15:09:36,381]{'mavpackettype': 'PARAM_VALUE', 'param_id': 'INS_ACCEL_FILTER', 'param_value': 20.0, 'param_type': 4, 'param_count': 920, 'param_index': 197}
[DEBUG][2021-05-01 15:09:36,392]{'mavpackettype': 'PARAM_VALUE', 'param_id': 'INS_USE', 'param_value': 1.0, 'param_type': 2, 'param_count': 920, 'param_index': 198}
[DEBUG][2021-05-01 15:09:36,403]{'mavpackettype': 'PARAM_VALUE', 'param_id': 'INS_USE2', 'param_value': 1.0, 'param_type': 2, 'param_count': 920, 'param_index': 199}
[DEBUG][2021-05-01 15:09:36,414]{'mavpackettype': 'PARAM_VALUE', 'param_id': 'INS_USE3', 'param_value': 1.0, 'param_type': 2, 'param_count': 920, 'param_index': 200}
[DEBUG][2021-05-01 15:09:36,425]{'mavpackettype': 'PARAM_VALUE', 'param_id': 'INS_STILL_THRESH', 'param_value': 0.10000000149011612, 'param_type': 9, 'param_count': 920, 'param_index': 201}
[DEBUG][2021-05-01 15:09:36,436]{'mavpackettype': 'PARAM_VALUE', 'param_id': 'INS_GYR_CAL', 'param_value': 0.0, 'param_type': 2, 'param_count': 920, 'param_index': 202}
[DEBUG][2021-05-01 15:09:36,447]{'mavpackettype': 'PARAM_VALUE', 'param_id': 'INS_TRIM_OPTION', 'param_value': 1.0, 'param_type': 2, 'param_count': 920, 'param_index': 203}
[DEBUG][2021-05-01 15:09:36,457]{'mavpackettype': 'PARAM_VALUE', 'param_id': 'INS_ACC_BODYFIX', 'param_value': 2.0, 'param_type': 2, 'param_count': 920, 'param_index': 204}
[DEBUG][2021-05-01 15:09:36,468]{'mavpackettype': 'PARAM_VALUE', 'param_id': 'INS_POS1_X', 'param_value': 0.0, 'param_type': 9, 'param_count': 920, 'param_index': 205}
[DEBUG][2021-05-01 15:09:36,479]{'mavpackettype': 'PARAM_VALUE', 'param_id': 'INS_POS1_Y', 'param_value': 0.0, 'param_type': 9, 'param_count': 920, 'param_index': 206}
[DEBUG][2021-05-01 15:09:36,490]{'mavpackettype': 'PARAM_VALUE', 'param_id': 'INS_POS1_Z', 'param_value': 0.0, 'param_type': 9, 'param_count': 920, 'param_index': 207}
[DEBUG][2021-05-01 15:09:36,501]{'mavpackettype': 'PARAM_VALUE', 'param_id': 'INS_POS2_X', 'param_value': 0.0, 'param_type': 9, 'param_count': 920, 'param_index': 208}
[DEBUG][2021-05-01 15:09:36,512]{'mavpackettype': 'PARAM_VALUE', 'param_id': 'INS_POS2_Y', 'param_value': 0.0, 'param_type': 9, 'param_count': 920, 'param_index': 209}
[DEBUG][2021-05-01 15:09:36,523]{'mavpackettype': 'PARAM_VALUE', 'param_id': 'INS_POS2_Z', 'param_value': 0.0, 'param_type': 9, 'param_count': 920, 'param_index': 210}
[DEBUG][2021-05-01 15:09:36,534]{'mavpackettype': 'PARAM_VALUE', 'param_id': 'INS_POS3_X', 'param_value': 0.0, 'param_type': 9, 'param_count': 920, 'param_index': 211}
[DEBUG][2021-05-01 15:09:36,545]{'mavpackettype': 'PARAM_VALUE', 'param_id': 'INS_POS3_Y', 'param_value': 0.0, 'param_type': 9, 'param_count': 920, 'param_index': 212}
[DEBUG][2021-05-01 15:09:36,556]{'mavpackettype': 'PARAM_VALUE', 'param_id': 'INS_POS3_Z', 'param_value': 0.0, 'param_type': 9, 'param_count': 920, 'param_index': 213}
[DEBUG][2021-05-01 15:09:36,567]{'mavpackettype': 'PARAM_VALUE', 'param_id': 'INS_GYR_ID', 'param_value': 2163722.0, 'param_type': 6, 'param_count': 920, 'param_index': 214}
[DEBUG][2021-05-01 15:09:36,578]{'mavpackettype': 'PARAM_VALUE', 'param_id': 'INS_GYR2_ID', 'param_value': 0.0, 'param_type': 6, 'param_count': 920, 'param_index': 215}
[DEBUG][2021-05-01 15:09:36,589]{'mavpackettype': 'PARAM_VALUE', 'param_id': 'INS_GYR3_ID', 'param_value': 0.0, 'param_type': 6, 'param_count': 920, 'param_index': 216}
[DEBUG][2021-05-01 15:09:36,600]{'mavpackettype': 'PARAM_VALUE', 'param_id': 'INS_ACC_ID', 'param_value': 1246218.0, 'param_type': 6, 'param_count': 920, 'param_index': 217}
[DEBUG][2021-05-01 15:09:36,611]{'mavpackettype': 'PARAM_VALUE', 'param_id': 'INS_ACC2_ID', 'param_value': 0.0, 'param_type': 6, 'param_count': 920, 'param_index': 218}
[DEBUG][2021-05-01 15:09:36,622]{'mavpackettype': 'PARAM_VALUE', 'param_id': 'INS_ACC3_ID', 'param_value': 0.0, 'param_type': 6, 'param_count': 920, 'param_index': 219}
[DEBUG][2021-05-01 15:09:36,633]{'mavpackettype': 'PARAM_VALUE', 'param_id': 'INS_FAST_SAMPLE', 'param_value': 0.0, 'param_type': 2, 'param_count': 920, 'param_index': 220}
[DEBUG][2021-05-01 15:09:36,644]{'mavpackettype': 'PARAM_VALUE', 'param_id': 'INS_NOTCH_ENABLE', 'param_value': 0.0, 'param_type': 2, 'param_count': 920, 'param_index': 221}
[DEBUG][2021-05-01 15:09:36,655]{'mavpackettype': 'PARAM_VALUE', 'param_id': 'INS_LOG_BAT_CNT', 'param_value': 1024.0, 'param_type': 4, 'param_count': 920, 'param_index': 222}
[DEBUG][2021-05-01 15:09:36,666]{'mavpackettype': 'PARAM_VALUE', 'param_id': 'INS_LOG_BAT_MASK', 'param_value': 0.0, 'param_type': 2, 'param_count': 920, 'param_index': 223}
[DEBUG][2021-05-01 15:09:36,676]{'mavpackettype': 'PARAM_VALUE', 'param_id': 'INS_LOG_BAT_OPT', 'param_value': 0.0, 'param_type': 2, 'param_count': 920, 'param_index': 224}
[DEBUG][2021-05-01 15:09:36,687]{'mavpackettype': 'PARAM_VALUE', 'param_id': 'INS_LOG_BAT_LGIN', 'param_value': 20.0, 'param_type': 2, 'param_count': 920, 'param_index': 225}
[DEBUG][2021-05-01 15:09:36,698]{'mavpackettype': 'PARAM_VALUE', 'param_id': 'INS_LOG_BAT_LGCT', 'param_value': 32.0, 'param_type': 4, 'param_count': 920, 'param_index': 226}
[DEBUG][2021-05-01 15:09:36,709]{'mavpackettype': 'PARAM_VALUE', 'param_id': 'INS_ENABLE_MASK', 'param_value': 127.0, 'param_type': 2, 'param_count': 920, 'param_index': 227}
[DEBUG][2021-05-01 15:09:36,720]{'mavpackettype': 'PARAM_VALUE', 'param_id': 'INS_HNTCH_ENABLE', 'param_value': 0.0, 'param_type': 2, 'param_count': 920, 'param_index': 228}
[DEBUG][2021-05-01 15:09:36,731]{'mavpackettype': 'PARAM_VALUE', 'param_id': 'WPNAV_SPEED', 'param_value': 500.0, 'param_type': 9, 'param_count': 920, 'param_index': 229}
[DEBUG][2021-05-01 15:09:36,742]{'mavpackettype': 'PARAM_VALUE', 'param_id': 'WPNAV_RADIUS', 'param_value': 200.0, 'param_type': 9, 'param_count': 920, 'param_index': 230}
[DEBUG][2021-05-01 15:09:36,753]{'mavpackettype': 'PARAM_VALUE', 'param_id': 'WPNAV_SPEED_UP', 'param_value': 250.0, 'param_type': 9, 'param_count': 920, 'param_index': 231}
[DEBUG][2021-05-01 15:09:36,764]{'mavpackettype': 'PARAM_VALUE', 'param_id': 'WPNAV_SPEED_DN', 'param_value': 150.0, 'param_type': 9, 'param_count': 920, 'param_index': 232}
[DEBUG][2021-05-01 15:09:36,775]{'mavpackettype': 'PARAM_VALUE', 'param_id': 'WPNAV_ACCEL', 'param_value': 0.0, 'param_type': 9, 'param_count': 920, 'param_index': 233}
[DEBUG][2021-05-01 15:09:36,786]{'mavpackettype': 'PARAM_VALUE', 'param_id': 'WPNAV_ACCEL_Z', 'param_value': 100.0, 'param_type': 9, 'param_count': 920, 'param_index': 234}
[DEBUG][2021-05-01 15:09:36,797]{'mavpackettype': 'PARAM_VALUE', 'param_id': 'WPNAV_RFND_USE', 'param_value': 1.0, 'param_type': 2, 'param_count': 920, 'param_index': 235}
[DEBUG][2021-05-01 15:09:36,808]{'mavpackettype': 'PARAM_VALUE', 'param_id': 'LOIT_ANG_MAX', 'param_value': 0.0, 'param_type': 9, 'param_count': 920, 'param_index': 236}
[DEBUG][2021-05-01 15:09:36,819]{'mavpackettype': 'PARAM_VALUE', 'param_id': 'LOIT_SPEED', 'param_value': 1250.0, 'param_type': 9, 'param_count': 920, 'param_index': 237}
[DEBUG][2021-05-01 15:09:36,830]{'mavpackettype': 'PARAM_VALUE', 'param_id': 'LOIT_ACC_MAX', 'param_value': 500.0, 'param_type': 9, 'param_count': 920, 'param_index': 238}
[DEBUG][2021-05-01 15:09:36,841]{'mavpackettype': 'PARAM_VALUE', 'param_id': 'LOIT_BRK_ACCEL', 'param_value': 250.0, 'param_type': 9, 'param_count': 920, 'param_index': 239}
[DEBUG][2021-05-01 15:09:36,852]{'mavpackettype': 'PARAM_VALUE', 'param_id': 'LOIT_BRK_JERK', 'param_value': 500.0, 'param_type': 9, 'param_count': 920, 'param_index': 240}
[DEBUG][2021-05-01 15:09:36,863]{'mavpackettype': 'PARAM_VALUE', 'param_id': 'LOIT_BRK_DELAY', 'param_value': 1.0, 'param_type': 9, 'param_count': 920, 'param_index': 241}
[DEBUG][2021-05-01 15:09:36,873]{'mavpackettype': 'PARAM_VALUE', 'param_id': 'CIRCLE_RADIUS', 'param_value': 1000.0, 'param_type': 9, 'param_count': 920, 'param_index': 242}
[DEBUG][2021-05-01 15:09:36,884]{'mavpackettype': 'PARAM_VALUE', 'param_id': 'CIRCLE_RATE', 'param_value': 2.0, 'param_type': 9, 'param_count': 920, 'param_index': 243}
[DEBUG][2021-05-01 15:09:36,895]{'mavpackettype': 'PARAM_VALUE', 'param_id': 'ATC_SLEW_YAW', 'param_value': 6000.0, 'param_type': 9, 'param_count': 920, 'param_index': 244}
[DEBUG][2021-05-01 15:09:36,906]{'mavpackettype': 'PARAM_VALUE', 'param_id': 'ATC_ACCEL_Y_MAX', 'param_value': 110000.0, 'param_type': 9, 'param_count': 920, 'param_index': 245}
[DEBUG][2021-05-01 15:09:36,917]{'mavpackettype': 'PARAM_VALUE', 'param_id': 'ATC_RATE_FF_ENAB', 'param_value': 1.0, 'param_type': 2, 'param_count': 920, 'param_index': 246}
[DEBUG][2021-05-01 15:09:36,928]{'mavpackettype': 'PARAM_VALUE', 'param_id': 'ATC_ACCEL_R_MAX', 'param_value': 110000.0, 'param_type': 9, 'param_count': 920, 'param_index': 247}
[DEBUG][2021-05-01 15:09:36,939]{'mavpackettype': 'PARAM_VALUE', 'param_id': 'ATC_ACCEL_P_MAX', 'param_value': 110000.0, 'param_type': 9, 'param_count': 920, 'param_index': 248}
[DEBUG][2021-05-01 15:09:36,950]{'mavpackettype': 'PARAM_VALUE', 'param_id': 'ATC_ANGLE_BOOST', 'param_value': 1.0, 'param_type': 2, 'param_count': 920, 'param_index': 249}
[DEBUG][2021-05-01 15:09:36,961]{'mavpackettype': 'PARAM_VALUE', 'param_id': 'ATC_ANG_RLL_P', 'param_value': 6.0, 'param_type': 9, 'param_count': 920, 'param_index': 250}
[DEBUG][2021-05-01 15:09:36,972]{'mavpackettype': 'PARAM_VALUE', 'param_id': 'ATC_ANG_PIT_P', 'param_value': 6.0, 'param_type': 9, 'param_count': 920, 'param_index': 251}
[DEBUG][2021-05-01 15:09:36,983]{'mavpackettype': 'PARAM_VALUE', 'param_id': 'ATC_ANG_YAW_P', 'param_value': 6.0, 'param_type': 9, 'param_count': 920, 'param_index': 252}
[DEBUG][2021-05-01 15:09:36,994]{'mavpackettype': 'PARAM_VALUE', 'param_id': 'ATC_ANG_LIM_TC', 'param_value': 1.0, 'param_type': 9, 'param_count': 920, 'param_index': 253}
[DEBUG][2021-05-01 15:09:37,005]{'mavpackettype': 'PARAM_VALUE', 'param_id': 'ATC_RATE_R_MAX', 'param_value': 0.0, 'param_type': 9, 'param_count': 920, 'param_index': 254}
[DEBUG][2021-05-01 15:09:37,016]{'mavpackettype': 'PARAM_VALUE', 'param_id': 'ATC_RATE_P_MAX', 'param_value': 0.0, 'param_type': 9, 'param_count': 920, 'param_index': 255}
[DEBUG][2021-05-01 15:09:37,027]{'mavpackettype': 'PARAM_VALUE', 'param_id': 'ATC_RATE_Y_MAX', 'param_value': 0.0, 'param_type': 9, 'param_count': 920, 'param_index': 256}
[DEBUG][2021-05-01 15:09:37,038]{'mavpackettype': 'PARAM_VALUE', 'param_id': 'ATC_INPUT_TC', 'param_value': 0.15000000596046448, 'param_type': 9, 'param_count': 920, 'param_index': 257}
[DEBUG][2021-05-01 15:09:37,049]{'mavpackettype': 'PARAM_VALUE', 'param_id': 'ATC_RAT_RLL_P', 'param_value': 0.13500000536441803, 'param_type': 9, 'param_count': 920, 'param_index': 258}
[DEBUG][2021-05-01 15:09:37,060]{'mavpackettype': 'PARAM_VALUE', 'param_id': 'ATC_RAT_RLL_I', 'param_value': 0.09000000357627869, 'param_type': 9, 'param_count': 920, 'param_index': 259}
[DEBUG][2021-05-01 15:09:37,071]{'mavpackettype': 'PARAM_VALUE', 'param_id': 'ATC_RAT_RLL_D', 'param_value': 0.003599999938160181, 'param_type': 9, 'param_count': 920, 'param_index': 260}
[DEBUG][2021-05-01 15:09:37,082]{'mavpackettype': 'PARAM_VALUE', 'param_id': 'ATC_RAT_RLL_FF', 'param_value': 0.0, 'param_type': 9, 'param_count': 920, 'param_index': 261}
[DEBUG][2021-05-01 15:09:37,093]{'mavpackettype': 'PARAM_VALUE', 'param_id': 'ATC_RAT_RLL_IMAX', 'param_value': 0.4440000057220459, 'param_type': 9, 'param_count': 920, 'param_index': 262}
[DEBUG][2021-05-01 15:09:37,104]{'mavpackettype': 'PARAM_VALUE', 'param_id': 'ATC_RAT_RLL_FLTT', 'param_value': 30.0, 'param_type': 9, 'param_count': 920, 'param_index': 263}
[DEBUG][2021-05-01 15:09:37,115]{'mavpackettype': 'PARAM_VALUE', 'param_id': 'ATC_RAT_RLL_FLTE', 'param_value': 0.0, 'param_type': 9, 'param_count': 920, 'param_index': 264}
[DEBUG][2021-05-01 15:09:37,126]{'mavpackettype': 'PARAM_VALUE', 'param_id': 'ATC_RAT_RLL_FLTD', 'param_value': 30.0, 'param_type': 9, 'param_count': 920, 'param_index': 265}
[DEBUG][2021-05-01 15:09:37,137]{'mavpackettype': 'PARAM_VALUE', 'param_id': 'ATC_RAT_PIT_P', 'param_value': 0.13500000536441803, 'param_type': 9, 'param_count': 920, 'param_index': 266}
[DEBUG][2021-05-01 15:09:37,148]{'mavpackettype': 'PARAM_VALUE', 'param_id': 'ATC_RAT_PIT_I', 'param_value': 0.09000000357627869, 'param_type': 9, 'param_count': 920, 'param_index': 267}
[DEBUG][2021-05-01 15:09:37,159]{'mavpackettype': 'PARAM_VALUE', 'param_id': 'ATC_RAT_PIT_D', 'param_value': 0.003599999938160181, 'param_type': 9, 'param_count': 920, 'param_index': 268}
[DEBUG][2021-05-01 15:09:37,170]{'mavpackettype': 'PARAM_VALUE', 'param_id': 'ATC_RAT_PIT_FF', 'param_value': 0.0, 'param_type': 9, 'param_count': 920, 'param_index': 269}
[DEBUG][2021-05-01 15:09:37,181]{'mavpackettype': 'PARAM_VALUE', 'param_id': 'ATC_RAT_PIT_IMAX', 'param_value': 0.4440000057220459, 'param_type': 9, 'param_count': 920, 'param_index': 270}
[DEBUG][2021-05-01 15:09:37,192]{'mavpackettype': 'HEARTBEAT', 'type': 12, 'autopilot': 3, 'base_mode': 81, 'custom_mode': 19, 'system_status': 5, 'mavlink_version': 3}
[DEBUG][2021-05-01 15:09:37,203]{'mavpackettype': 'PARAM_VALUE', 'param_id': 'ATC_RAT_PIT_FLTT', 'param_value': 30.0, 'param_type': 9, 'param_count': 920, 'param_index': 271}
[DEBUG][2021-05-01 15:09:37,214]{'mavpackettype': 'PARAM_VALUE', 'param_id': 'ATC_RAT_PIT_FLTE', 'param_value': 0.0, 'param_type': 9, 'param_count': 920, 'param_index': 272}
[DEBUG][2021-05-01 15:09:37,225]{'mavpackettype': 'PARAM_VALUE', 'param_id': 'ATC_RAT_PIT_FLTD', 'param_value': 30.0, 'param_type': 9, 'param_count': 920, 'param_index': 273}
[DEBUG][2021-05-01 15:09:37,236]{'mavpackettype': 'PARAM_VALUE', 'param_id': 'ATC_RAT_YAW_P', 'param_value': 0.18000000715255737, 'param_type': 9, 'param_count': 920, 'param_index': 274}
[DEBUG][2021-05-01 15:09:37,247]{'mavpackettype': 'PARAM_VALUE', 'param_id': 'ATC_RAT_YAW_I', 'param_value': 0.017999999225139618, 'param_type': 9, 'param_count': 920, 'param_index': 275}
[DEBUG][2021-05-01 15:09:37,258]{'mavpackettype': 'PARAM_VALUE', 'param_id': 'ATC_RAT_YAW_D', 'param_value': 0.0, 'param_type': 9, 'param_count': 920, 'param_index': 276}
[DEBUG][2021-05-01 15:09:37,269]{'mavpackettype': 'PARAM_VALUE', 'param_id': 'ATC_RAT_YAW_FF', 'param_value': 0.0, 'param_type': 9, 'param_count': 920, 'param_index': 277}
[DEBUG][2021-05-01 15:09:37,280]{'mavpackettype': 'PARAM_VALUE', 'param_id': 'ATC_RAT_YAW_IMAX', 'param_value': 0.22200000286102295, 'param_type': 9, 'param_count': 920, 'param_index': 278}
[DEBUG][2021-05-01 15:09:37,291]{'mavpackettype': 'PARAM_VALUE', 'param_id': 'ATC_RAT_YAW_FLTT', 'param_value': 5.0, 'param_type': 9, 'param_count': 920, 'param_index': 279}
[DEBUG][2021-05-01 15:09:37,302]{'mavpackettype': 'PARAM_VALUE', 'param_id': 'ATC_RAT_YAW_FLTE', 'param_value': 0.0, 'param_type': 9, 'param_count': 920, 'param_index': 280}
[DEBUG][2021-05-01 15:09:37,313]{'mavpackettype': 'PARAM_VALUE', 'param_id': 'ATC_RAT_YAW_FLTD', 'param_value': 5.0, 'param_type': 9, 'param_count': 920, 'param_index': 281}
[DEBUG][2021-05-01 15:09:37,324]{'mavpackettype': 'PARAM_VALUE', 'param_id': 'ATC_THR_MIX_MIN', 'param_value': 0.10000000149011612, 'param_type': 9, 'param_count': 920, 'param_index': 282}
[DEBUG][2021-05-01 15:09:37,335]{'mavpackettype': 'PARAM_VALUE', 'param_id': 'ATC_THR_MIX_MAX', 'param_value': 0.5, 'param_type': 9, 'param_count': 920, 'param_index': 283}
[DEBUG][2021-05-01 15:09:37,345]{'mavpackettype': 'PARAM_VALUE', 'param_id': 'ATC_THR_MIX_MAN', 'param_value': 0.10000000149011612, 'param_type': 9, 'param_count': 920, 'param_index': 284}
[DEBUG][2021-05-01 15:09:37,356]{'mavpackettype': 'PARAM_VALUE', 'param_id': 'PSC_ACC_XY_FILT', 'param_value': 2.0, 'param_type': 9, 'param_count': 920, 'param_index': 285}
[DEBUG][2021-05-01 15:09:37,367]{'mavpackettype': 'PARAM_VALUE', 'param_id': 'PSC_POSZ_P', 'param_value': 3.0, 'param_type': 9, 'param_count': 920, 'param_index': 286}
[DEBUG][2021-05-01 15:09:37,378]{'mavpackettype': 'PARAM_VALUE', 'param_id': 'PSC_VELZ_P', 'param_value': 8.0, 'param_type': 9, 'param_count': 920, 'param_index': 287}
[DEBUG][2021-05-01 15:09:37,389]{'mavpackettype': 'PARAM_VALUE', 'param_id': 'PSC_ACCZ_P', 'param_value': 0.5, 'param_type': 9, 'param_count': 920, 'param_index': 288}
[DEBUG][2021-05-01 15:09:37,400]{'mavpackettype': 'PARAM_VALUE', 'param_id': 'PSC_ACCZ_I', 'param_value': 0.10000000149011612, 'param_type': 9, 'param_count': 920, 'param_index': 289}
[DEBUG][2021-05-01 15:09:37,411]{'mavpackettype': 'PARAM_VALUE', 'param_id': 'PSC_ACCZ_D', 'param_value': 0.0, 'param_type': 9, 'param_count': 920, 'param_index': 290}
[DEBUG][2021-05-01 15:09:37,422]{'mavpackettype': 'PARAM_VALUE', 'param_id': 'PSC_ACCZ_FF', 'param_value': 0.0, 'param_type': 9, 'param_count': 920, 'param_index': 291}
[DEBUG][2021-05-01 15:09:37,433]{'mavpackettype': 'PARAM_VALUE', 'param_id': 'PSC_ACCZ_IMAX', 'param_value': 100.0, 'param_type': 9, 'param_count': 920, 'param_index': 292}
[DEBUG][2021-05-01 15:09:37,444]{'mavpackettype': 'PARAM_VALUE', 'param_id': 'PSC_ACCZ_FLTT', 'param_value': 0.0, 'param_type': 9, 'param_count': 920, 'param_index': 293}
[DEBUG][2021-05-01 15:09:37,455]{'mavpackettype': 'PARAM_VALUE', 'param_id': 'PSC_ACCZ_FLTE', 'param_value': 20.0, 'param_type': 9, 'param_count': 920, 'param_index': 294}
[DEBUG][2021-05-01 15:09:37,466]{'mavpackettype': 'PARAM_VALUE', 'param_id': 'PSC_ACCZ_FLTD', 'param_value': 0.0, 'param_type': 9, 'param_count': 920, 'param_index': 295}
[DEBUG][2021-05-01 15:09:37,477]{'mavpackettype': 'PARAM_VALUE', 'param_id': 'PSC_POSXY_P', 'param_value': 1.0, 'param_type': 9, 'param_count': 920, 'param_index': 296}
[DEBUG][2021-05-01 15:09:37,488]{'mavpackettype': 'PARAM_VALUE', 'param_id': 'PSC_VELXY_P', 'param_value': 1.0, 'param_type': 9, 'param_count': 920, 'param_index': 297}
[DEBUG][2021-05-01 15:09:37,499]{'mavpackettype': 'PARAM_VALUE', 'param_id': 'PSC_VELXY_I', 'param_value': 0.5, 'param_type': 9, 'param_count': 920, 'param_index': 298}
[DEBUG][2021-05-01 15:09:37,510]{'mavpackettype': 'PARAM_VALUE', 'param_id': 'PSC_VELXY_IMAX', 'param_value': 1000.0, 'param_type': 9, 'param_count': 920, 'param_index': 299}
[DEBUG][2021-05-01 15:09:37,521]{'mavpackettype': 'PARAM_VALUE', 'param_id': 'PSC_VELXY_FILT', 'param_value': 5.0, 'param_type': 9, 'param_count': 920, 'param_index': 300}
[DEBUG][2021-05-01 15:09:37,532]{'mavpackettype': 'PARAM_VALUE', 'param_id': 'PSC_VELXY_D', 'param_value': 0.0, 'param_type': 9, 'param_count': 920, 'param_index': 301}
[DEBUG][2021-05-01 15:09:37,543]{'mavpackettype': 'PARAM_VALUE', 'param_id': 'PSC_VELXY_D_FILT', 'param_value': 5.0, 'param_type': 9, 'param_count': 920, 'param_index': 302}
[DEBUG][2021-05-01 15:09:37,554]{'mavpackettype': 'PARAM_VALUE', 'param_id': 'PSC_ANGLE_MAX', 'param_value': 0.0, 'param_type': 9, 'param_count': 920, 'param_index': 303}
[DEBUG][2021-05-01 15:09:37,565]{'mavpackettype': 'PARAM_VALUE', 'param_id': 'SR0_RAW_SENS', 'param_value': 0.0, 'param_type': 4, 'param_count': 920, 'param_index': 304}
[DEBUG][2021-05-01 15:09:37,576]{'mavpackettype': 'PARAM_VALUE', 'param_id': 'SR0_EXT_STAT', 'param_value': 0.0, 'param_type': 4, 'param_count': 920, 'param_index': 305}
[DEBUG][2021-05-01 15:09:37,587]{'mavpackettype': 'PARAM_VALUE', 'param_id': 'SR0_RC_CHAN', 'param_value': 0.0, 'param_type': 4, 'param_count': 920, 'param_index': 306}
[DEBUG][2021-05-01 15:09:37,598]{'mavpackettype': 'PARAM_VALUE', 'param_id': 'SR0_POSITION', 'param_value': 0.0, 'param_type': 4, 'param_count': 920, 'param_index': 307}
[DEBUG][2021-05-01 15:09:37,608]{'mavpackettype': 'PARAM_VALUE', 'param_id': 'SR0_EXTRA1', 'param_value': 0.0, 'param_type': 4, 'param_count': 920, 'param_index': 308}
[DEBUG][2021-05-01 15:09:37,619]{'mavpackettype': 'PARAM_VALUE', 'param_id': 'SR0_EXTRA2', 'param_value': 0.0, 'param_type': 4, 'param_count': 920, 'param_index': 309}
[DEBUG][2021-05-01 15:09:37,630]{'mavpackettype': 'PARAM_VALUE', 'param_id': 'SR0_EXTRA3', 'param_value': 0.0, 'param_type': 4, 'param_count': 920, 'param_index': 310}
[DEBUG][2021-05-01 15:09:37,641]{'mavpackettype': 'PARAM_VALUE', 'param_id': 'SR0_PARAMS', 'param_value': 0.0, 'param_type': 4, 'param_count': 920, 'param_index': 311}
[DEBUG][2021-05-01 15:09:37,652]{'mavpackettype': 'PARAM_VALUE', 'param_id': 'SR1_RAW_SENS', 'param_value': 0.0, 'param_type': 4, 'param_count': 920, 'param_index': 312}
[DEBUG][2021-05-01 15:09:37,663]{'mavpackettype': 'PARAM_VALUE', 'param_id': 'SR1_EXT_STAT', 'param_value': 0.0, 'param_type': 4, 'param_count': 920, 'param_index': 313}
[DEBUG][2021-05-01 15:09:37,674]{'mavpackettype': 'PARAM_VALUE', 'param_id': 'SR1_RC_CHAN', 'param_value': 0.0, 'param_type': 4, 'param_count': 920, 'param_index': 314}
[DEBUG][2021-05-01 15:09:37,685]{'mavpackettype': 'PARAM_VALUE', 'param_id': 'SR1_POSITION', 'param_value': 0.0, 'param_type': 4, 'param_count': 920, 'param_index': 315}
[DEBUG][2021-05-01 15:09:37,696]{'mavpackettype': 'PARAM_VALUE', 'param_id': 'SR1_EXTRA1', 'param_value': 0.0, 'param_type': 4, 'param_count': 920, 'param_index': 316}
[DEBUG][2021-05-01 15:09:37,707]{'mavpackettype': 'PARAM_VALUE', 'param_id': 'SR1_EXTRA2', 'param_value': 0.0, 'param_type': 4, 'param_count': 920, 'param_index': 317}
[DEBUG][2021-05-01 15:09:37,718]{'mavpackettype': 'PARAM_VALUE', 'param_id': 'SR1_EXTRA3', 'param_value': 0.0, 'param_type': 4, 'param_count': 920, 'param_index': 318}
[DEBUG][2021-05-01 15:09:37,729]{'mavpackettype': 'PARAM_VALUE', 'param_id': 'SR1_PARAMS', 'param_value': 0.0, 'param_type': 4, 'param_count': 920, 'param_index': 319}
